{
  "cities": [
    {
      "cityName": "Lisbon",
      "country": "Portugal",
      "emoji": "ðŸ‡µðŸ‡¹",
      "date": "2027-10-31T15:59:59.138Z",
      "notes": "My favorite city so far!",
      "position": {
        "lat": 38.727881642324164,
        "lng": -9.140900099907554
      },
      "id": "73930385"
    },
    {
      "cityName": "Madrid",
      "country": "Spain",
      "emoji": "ðŸ‡ªðŸ‡¸",
      "date": "2027-07-15T08:22:53.976Z",
      "notes": "",
      "position": {
        "lat": 40.46635901755316,
        "lng": -3.7133789062500004
      },
      "id": "17806751"
    },
    {
      "cityName": "Berlin",
      "country": "Germany",
      "emoji": "ðŸ‡©ðŸ‡ª",
      "date": "2027-02-12T09:24:11.863Z",
      "notes": "Amazing ðŸ˜ƒ",
      "position": {
        "lat": 52.53586782505711,
        "lng": 13.376933665713324
      },
      "id": "98443197"
    },
    {
      "cityName": "Nijar",
      "country": "Spain",
      "emoji": "ðŸ‡ªðŸ‡¸",
      "date": "2023-04-03T07:47:59.202Z",
      "notes": "",
      "position": {
        "lat": "36.967508314568164",
        "lng": "-2.13128394200588"
      },
      "id": "98443198"
    },
    {
      "id": "8f42",
      "cityName": "Chantada",
      "country": "Spain",
      "emoji": "ðŸ‡ªðŸ‡¸",
      "date": "2024-09-08T05:14:23.151Z",
      "notes": "",
      "position": {
        "lat": "42.61779143282346",
        "lng": "-7.778320312500001"
      }
    },
    {
      "id": "0018",
      "cityName": "Chantada",
      "country": "Spain",
      "emoji": "ðŸ‡ªðŸ‡¸",
      "date": "2024-09-08T05:14:23.151Z",
      "notes": "",
      "position": {
        "lat": "42.61779143282346",
        "lng": "-7.778320312500001"
      }
    },
    {
      "id": "cd92",
      "cityName": "Chantada",
      "country": "Spain",
      "emoji": "ðŸ‡ªðŸ‡¸",
      "date": "2024-09-08T05:14:23.151Z",
      "notes": "",
      "position": {
        "lat": "42.61779143282346",
        "lng": "-7.778320312500001"
      }
    },
    {
      "id": "b2ac",
      "cityName": "Chantada",
      "country": "Spain",
      "emoji": "ðŸ‡ªðŸ‡¸",
      "date": "2024-09-08T05:14:23.151Z",
      "notes": "",
      "position": {
        "lat": "42.61779143282346",
        "lng": "-7.778320312500001"
      }
    },
    {
      "id": "529a",
      "cityName": "Chantada",
      "country": "Spain",
      "emoji": "ðŸ‡ªðŸ‡¸",
      "date": "2024-09-08T05:14:23.151Z",
      "notes": "",
      "position": {
        "lat": "42.61779143282346",
        "lng": "-7.778320312500001"
      }
    },
    {
      "id": "224e",
      "cityName": "Chantada",
      "country": "Spain",
      "emoji": "ðŸ‡ªðŸ‡¸",
      "date": "2024-09-08T05:14:23.151Z",
      "notes": "",
      "position": {
        "lat": "42.61779143282346",
        "lng": "-7.778320312500001"
      }
    },
    {
      "id": "1eed",
      "cityName": "Chantada",
      "country": "Spain",
      "emoji": "ðŸ‡ªðŸ‡¸",
      "date": "2024-09-08T05:14:23.151Z",
      "notes": "",
      "position": {
        "lat": "42.61779143282346",
        "lng": "-7.778320312500001"
      }
    },
    {
      "id": "323d",
      "cityName": "Justel",
      "country": "Spain",
      "emoji": "ðŸ‡ªðŸ‡¸",
      "date": "2024-09-08T05:14:23.151Z",
      "notes": "",
      "position": {
        "lat": "42.13082130188811",
        "lng": "-6.262207031250001"
      }
    },
    {
      "id": "dfc9",
      "cityName": "Justel",
      "country": "Spain",
      "emoji": "ðŸ‡ªðŸ‡¸",
      "date": "2024-09-08T05:14:23.151Z",
      "notes": "",
      "position": {
        "lat": "42.13082130188811",
        "lng": "-6.262207031250001"
      }
    },
    {
      "id": "1ca4",
      "cityName": "Justel",
      "country": "Spain",
      "emoji": "ðŸ‡ªðŸ‡¸",
      "date": "2024-09-08T05:14:23.151Z",
      "notes": "",
      "position": {
        "lat": "42.13082130188811",
        "lng": "-6.262207031250001"
      }
    },
    {
      "id": "8943",
      "cityName": "Justel",
      "country": "Spain",
      "emoji": "ðŸ‡ªðŸ‡¸",
      "date": "2024-09-08T05:14:23.151Z",
      "notes": "",
      "position": {
        "lat": "42.13082130188811",
        "lng": "-6.262207031250001"
      }
    },
    {
      "id": "938a",
      "cityName": "Justel",
      "country": "Spain",
      "emoji": "ðŸ‡ªðŸ‡¸",
      "date": "2024-09-08T05:14:23.151Z",
      "notes": "tjytj",
      "position": {
        "lat": "42.13082130188811",
        "lng": "-6.262207031250001"
      }
    },
    {
      "id": "2eb7",
      "cityName": "Justel",
      "country": "Spain",
      "emoji": "ðŸ‡ªðŸ‡¸",
      "date": "2024-09-08T05:14:23.151Z",
      "notes": "tjytj",
      "position": {
        "lat": "42.13082130188811",
        "lng": "-6.262207031250001"
      }
    },
    {
      "id": "8e71",
      "cityName": "Justel",
      "country": "Spain",
      "emoji": "ðŸ‡ªðŸ‡¸",
      "date": "2024-09-08T05:14:23.151Z",
      "notes": "tjytj",
      "position": {
        "lat": "42.13082130188811",
        "lng": "-6.262207031250001"
      }
    },
    {
      "id": "3a83",
      "cityName": "Echourgnac",
      "country": "France",
      "emoji": "ðŸ‡«ðŸ‡·",
      "date": "2024-09-08T05:14:23.151Z",
      "notes": "tjytj",
      "position": {
        "lat": "45.120052841530544",
        "lng": "0.26367187500000006"
      }
    },
    {
      "id": "c5d2",
      "cityName": "Echourgnac",
      "country": "France",
      "emoji": "ðŸ‡«ðŸ‡·",
      "date": "2024-09-08T05:14:23.151Z",
      "notes": "tjytj",
      "position": {
        "lat": "45.120052841530544",
        "lng": "0.26367187500000006"
      }
    },
    {
      "id": "be7d",
      "cityName": "Ajdabiya",
      "country": "Libya",
      "emoji": "ðŸ‡±ðŸ‡¾",
      "date": "2024-09-08T06:04:19.396Z",
      "notes": "",
      "position": {
        "lat": "28.9023972285585",
        "lng": "20.676269531250004"
      }
    },
    {
      "id": "1178",
      "cityName": "Hevel Eilot Regional Council",
      "country": "Israel",
      "emoji": "ðŸ‡®ðŸ‡±",
      "date": "2024-09-08T06:04:26.509Z",
      "notes": "",
      "position": {
        "lat": "30.221101852485987",
        "lng": "34.71679687500001"
      }
    }
  ]
}